{
  "nodes": {
    "n1": {
      "id": "n1",
      "lat": 45.512754325,
      "lon": -122.71697834857667,
      "label": "start"
    },
    "n2": {
      "id": "n2",
      "lat": 45.513192430555556,
      "lon": -122.71737558399046,
      "label": "trail to Vietnam Mem."
    },
    "n3": {
      "id": "n3",
      "lat": 45.51380950555556,
      "lon": -122.71927902979981,
      "label": "Hemlock Trail"
    },
    "n4": {
      "id": "n4",
      "lat": 45.514278641666664,
      "lon": -122.71644334183036,
      "label": "unknown trail junction"
    },
    "n5": {
      "id": "n5",
      "lat": 45.51433277777778,
      "lon": -122.7152975510529,
      "label": "top of hill"
    },
    "n6": {
      "id": "n6",
      "lat": 45.51423648611111,
      "lon": -122.71465603344838,
      "label": "Cherry Trail"
    },
    "n7": {
      "id": "n7",
      "lat": 45.51443960555556,
      "lon": -122.71411944546237,
      "label": "Overlook Trail"
    },
    "n8": {
      "id": "n8",
      "lat": 45.514420969444444,
      "lon": -122.7136654566586,
      "label": "Magnolia Trail"
    },
    "n9": {
      "id": "n9",
      "lat": 45.514051175,
      "lon": -122.71359301118629,
      "label": "Cherry Trail"
    },
    "n10": {
      "id": "n10",
      "lat": 45.51269292777778,
      "lon": -122.71317782506567,
      "label": "Cherry Trail"
    },
    "n11": {
      "id": "n11",
      "lat": 45.51310108888889,
      "lon": -122.71044017813365,
      "label": "Walnut Trail"
    },
    "n12": {
      "id": "n12",
      "lat": 45.51456831388889,
      "lon": -122.70697978434356,
      "label": "trail to parking"
    },
    "n13": {
      "id": "n13",
      "lat": 45.51852601388889,
      "lon": -122.71153580738596,
      "label": "Japanese Garden Trail"
    },
    "n14": {
      "id": "n14",
      "lat": 45.51836792222222,
      "lon": -122.71504123964239,
      "label": "unmarked trail"
    },
    "n15": {
      "id": "n15",
      "lat": 45.517743825,
      "lon": -122.71491988633329,
      "label": "Oak Trail"
    },
    "n16": {
      "id": "n16",
      "lat": 45.51837586111111,
      "lon": -122.71565844869092,
      "label": "east edge of Fairview Drive"
    },
    "n17": {
      "id": "n17",
      "lat": 45.519629441666666,
      "lon": -122.71661754243475,
      "label": "Bray Lane"
    },
    "n18": {
      "id": "n18",
      "lat": 45.51898113611111,
      "lon": -122.71716102364213,
      "label": "Redwood Trail"
    },
    "n19": {
      "id": "n19",
      "lat": 45.51923510833333,
      "lon": -122.71748418065242,
      "label": "Creek Trail"
    },
    "n20": {
      "id": "n20",
      "lat": 45.51946283611111,
      "lon": -122.71801619171495,
      "label": "White Pine Trail"
    },
    "n21": {
      "id": "n21",
      "lat": 45.523170977777774,
      "lon": -122.71797598850576,
      "label": "pumphouse road crossing"
    },
    "n22": {
      "id": "n22",
      "lat": 45.52474463888889,
      "lon": -122.71776482817876,
      "label": "edge of road to Pittock Mansion"
    },
    "n23": {
      "id": "n23",
      "lat": 45.52518808333333,
      "lon": -122.71833921309401,
      "label": "edge of Pittock parking lot, at Wildwood"
    },
    "n24": {
      "id": "n24",
      "lat": 45.52559891944444,
      "lon": -122.71794841311541,
      "label": "bronze plaque near parking lot"
    },
    "n25": {
      "id": "n25",
      "lat": 45.5276522,
      "lon": -122.71848670836036,
      "label": "Upper MacLeay Trail"
    },
    "n26": {
      "id": "n26",
      "lat": 45.528435083333335,
      "lon": -122.71804717610486,
      "label": "MacLeay Trail"
    },
    "n27": {
      "id": "n27",
      "lat": 45.528826525,
      "lon": -122.71951453198037,
      "label": "Cumberland Trail"
    },
    "n28": {
      "id": "n28",
      "lat": 45.526644491666666,
      "lon": -122.7261405318012,
      "label": "Upper MacLeay Trail"
    },
    "n29": {
      "id": "n29",
      "lat": 45.52679352777778,
      "lon": -122.72656744491103,
      "label": "edge of Cornell Road"
    },
    "n30": {
      "id": "n30",
      "lat": 45.52812384722222,
      "lon": -122.72507642849313,
      "label": "Lower MacLeay Trail"
    },
    "n31": {
      "id": "n31",
      "lat": 45.53284584722222,
      "lon": -122.7202122788485,
      "label": "Holman Lane"
    },
    "n32": {
      "id": "n32",
      "lat": 45.53730695833333,
      "lon": -122.72141842060849,
      "label": "Aspen Trail"
    },
    "n33": {
      "id": "n33",
      "lat": 45.535215525,
      "lon": -122.72556212325931,
      "label": "Parkview Trail"
    },
    "n34": {
      "id": "n34",
      "lat": 45.53526421388889,
      "lon": -122.7304971049956,
      "label": "Birch Trail"
    },
    "n35": {
      "id": "n35",
      "lat": 45.53803257222222,
      "lon": -122.73027370855627,
      "label": "Wild Cherry Trail"
    },
    "n36": {
      "id": "n36",
      "lat": 45.544565827777774,
      "lon": -122.73029599929492,
      "label": "Dogwood Trail"
    },
    "n37": {
      "id": "n37",
      "lat": 45.540593369444444,
      "lon": -122.7372373786345,
      "label": "trailhead: NW 53rd: Wildwood Trail"
    },
    "n38": {
      "id": "n38",
      "lat": 45.54282253333333,
      "lon": -122.73877300186011,
      "label": "Alder Trail (1st \"Y\")"
    },
    "n39": {
      "id": "n39",
      "lat": 45.54909615555555,
      "lon": -122.74398986826736,
      "label": "Morak Trail"
    },
    "n40": {
      "id": "n40",
      "lat": 45.552207886111105,
      "lon": -122.74670311026043,
      "label": "centerline of Fire Lane 1"
    },
    "n41": {
      "id": "n41",
      "lat": 45.54874228055555,
      "lon": -122.75156372821077,
      "label": "link to Nature Trail"
    },
    "n42": {
      "id": "n42",
      "lat": 45.54973440833333,
      "lon": -122.75448839299216,
      "label": "Chestnut Trail"
    },
    "n43": {
      "id": "n43",
      "lat": 45.55212345277778,
      "lon": -122.75820641517242,
      "label": "centerline of Fire Lane 2"
    },
    "n44": {
      "id": "n44",
      "lat": 45.55245910833333,
      "lon": -122.75849703686872,
      "label": "Maple Trail"
    },
    "n45": {
      "id": "n45",
      "lat": 45.553907152777775,
      "lon": -122.76093188766329,
      "label": "Maple Link"
    },
    "n46": {
      "id": "n46",
      "lat": 45.555019877777774,
      "lon": -122.76054534502121,
      "label": "Fire Lane 3"
    },
    "n47": {
      "id": "n47",
      "lat": 45.55796892222222,
      "lon": -122.76238459259316,
      "label": "Koenig Trail"
    },
    "n48": {
      "id": "n48",
      "lat": 45.562171219444444,
      "lon": -122.76824072078017,
      "label": "edge of powerline corridor"
    },
    "n49": {
      "id": "n49",
      "lat": 45.56304184444444,
      "lon": -122.76729250640236,
      "label": "Cleator Trail"
    },
    "n50": {
      "id": "n50",
      "lat": 45.564754261111105,
      "lon": -122.76990570764656,
      "label": "edge of Saltzman"
    },
    "n51": {
      "id": "n51",
      "lat": 45.56709060833334,
      "lon": -122.77124654323585,
      "label": "Fire Lane 5"
    },
    "n52": {
      "id": "n52",
      "lat": 45.570735725000006,
      "lon": -122.77740998487546,
      "label": "Wiregate Trail"
    },
    "n53": {
      "id": "n53",
      "lat": 45.571651025,
      "lon": -122.7832396466831,
      "label": "Trillium Trail"
    },
    "n54": {
      "id": "n54",
      "lat": 45.572742197222226,
      "lon": -122.76976834089434,
      "label": "Fire Lane 7"
    },
    "n55": {
      "id": "n55",
      "lat": 45.57586283333334,
      "lon": -122.77070530136504,
      "label": "Fire Lane 7A"
    },
    "n56": {
      "id": "n56",
      "lat": 45.57854105277778,
      "lon": -122.77477616476965,
      "label": "Ridge Trail"
    },
    "n57": {
      "id": "n57",
      "lat": 45.57706016666667,
      "lon": -122.78301591996784,
      "label": "Hardesty Trail"
    },
    "n58": {
      "id": "n58",
      "lat": 45.57757029166667,
      "lon": -122.78315861147881,
      "label": "Hardesty Trail"
    },
    "n59": {
      "id": "n59",
      "lat": 45.57869637777778,
      "lon": -122.78529137692382,
      "label": "edge of road, Springville"
    },
    "n60": {
      "id": "n60",
      "lat": 45.58323471388889,
      "lon": -122.79055695935511,
      "label": "Waterline Trail"
    },
    "n61": {
      "id": "n61",
      "lat": 45.58750783055556,
      "lon": -122.7930798708225,
      "label": "Cannon Trail"
    },
    "n62": {
      "id": "n62",
      "lat": 45.58727817777778,
      "lon": -122.79409521355281,
      "label": "edge of parking lot"
    },
    "n63": {
      "id": "n63",
      "lat": 45.58799903333333,
      "lon": -122.79383764558666,
      "label": "entrance to parking lot"
    },
    "n64": {
      "id": "n64",
      "lat": 45.58768345833334,
      "lon": -122.79733781349556,
      "label": "Fire Lane 8"
    },
    "n65": {
      "id": "n65",
      "lat": 45.590397530555556,
      "lon": -122.8004794655237,
      "label": "Fire Lane 10"
    },
    "n66": {
      "id": "n66",
      "lat": 45.59209770277778,
      "lon": -122.80100681777573,
      "label": "parking access trail"
    },
    "n67": {
      "id": "n67",
      "lat": 45.59543728888889,
      "lon": -122.80084304285522,
      "label": "Newton Road access trail"
    },
    "n68": {
      "id": "n68",
      "lat": 45.59968390555556,
      "lon": -122.80044943968852,
      "label": "Newton Road"
    },
    "n69": {
      "id": "n69",
      "lat": 45.59675165,
      "lon": -122.8096506088623,
      "label": "edge of BPA Road"
    },
    "n70": {
      "id": "n70",
      "lat": 45.59657168888889,
      "lon": -122.8100961924456,
      "label": "edge of BPA Road"
    },
    "n71": {
      "id": "n71",
      "lat": 45.60148658888889,
      "lon": -122.81302473127155,
      "label": "Fire Lane 15"
    },
    "n72": {
      "id": "n72",
      "lat": 45.605641633333335,
      "lon": -122.82336240022909,
      "label": "end"
    },
    "n73": {
      "id": "n73",
      "lat": 45.53915143611111,
      "lon": -122.72524096279344,
      "label": "start"
    },
    "n74": {
      "id": "n74",
      "lat": 45.540460833333334,
      "lon": -122.72626117885926,
      "label": "WildCherry Trail"
    },
    "n75": {
      "id": "n75",
      "lat": 45.54623336666666,
      "lon": -122.73080765790267,
      "label": "Dogwood Trail"
    },
    "n76": {
      "id": "n76",
      "lat": 45.54718518055555,
      "lon": -122.73563616291167,
      "label": "Alder Trail"
    },
    "n77": {
      "id": "n77",
      "lat": 45.55728784444444,
      "lon": -122.74898582428209,
      "label": "Fire Lane 1"
    },
    "n78": {
      "id": "n78",
      "lat": 45.552898255555554,
      "lon": -122.75297001379587,
      "label": "Nature Trail"
    },
    "n79": {
      "id": "n79",
      "lat": 45.55670544444444,
      "lon": -122.75296810549855,
      "label": "Fire Lane 2"
    },
    "n80": {
      "id": "n80",
      "lat": 45.55750153333333,
      "lon": -122.75588683517422,
      "label": "Maple Trail crossing"
    },
    "n81": {
      "id": "n81",
      "lat": 45.557756499999996,
      "lon": -122.76094042446401,
      "label": "Koenig Trail"
    },
    "n82": {
      "id": "n82",
      "lat": 45.55847486944444,
      "lon": -122.76041040610981,
      "label": "Koenig Trail"
    },
    "n83": {
      "id": "n83",
      "lat": 45.56181357777778,
      "lon": -122.7603917692038,
      "label": "Fire Lane 4"
    },
    "n84": {
      "id": "n84",
      "lat": 45.561828355555555,
      "lon": -122.76551292213288,
      "label": "Cleator Trail"
    },
    "n85": {
      "id": "n85",
      "lat": 45.569356247222224,
      "lon": -122.76314148648873,
      "label": "Saltzman Road"
    },
    "n86": {
      "id": "n86",
      "lat": 45.56841595,
      "lon": -122.76753895016749,
      "label": "Maple Trail"
    },
    "n87": {
      "id": "n87",
      "lat": 45.566838286111114,
      "lon": -122.76952475394955,
      "label": "Fire Lane 5"
    },
    "n88": {
      "id": "n88",
      "lat": 45.569794280555556,
      "lon": -122.77352248356051,
      "label": "Wiregate Trail"
    },
    "n89": {
      "id": "n89",
      "lat": 45.574062563888894,
      "lon": -122.76724248355148,
      "label": "Fire Lane 7"
    },
    "n90": {
      "id": "n90",
      "lat": 45.576754208333334,
      "lon": -122.76814054691663,
      "label": "Fire Lane 7A"
    },
    "n91": {
      "id": "n91",
      "lat": 45.57898350277778,
      "lon": -122.77125476159358,
      "label": "Ridge Trail"
    },
    "n92": {
      "id": "n92",
      "lat": 45.57925846666667,
      "lon": -122.77934037220668,
      "label": "Hardesty Trail"
    },
    "n93": {
      "id": "n93",
      "lat": 45.58297548888889,
      "lon": -122.78282209595125,
      "label": "Springville Road"
    },
    "n94": {
      "id": "n94",
      "lat": 45.58465847222222,
      "lon": -122.78463522078341,
      "label": "Waterline Trail"
    },
    "n95": {
      "id": "n95",
      "lat": 45.58917877777778,
      "lon": -122.7903461308416,
      "label": "edge of Germantown Rd"
    },
    "n96": {
      "id": "n96",
      "lat": 45.54432235611034,
      "lon": -122.74705327878954,
      "label": "53rd Drive, edge of pavement"
    },
    "n97": {
      "id": "n97",
      "lat": 45.54520236437622,
      "lon": -122.74591874862499,
      "label": "trailhead: Forest Lane: Firelane 1"
    },
    "n98": {
      "id": "n98",
      "lat": 45.55254099558286,
      "lon": -122.74800803901329,
      "label": "Nature Trail"
    },
    "n99": {
      "id": "n99",
      "lat": 45.5472061665244,
      "lon": -122.76450260250554,
      "label": "start"
    },
    "n100": {
      "id": "n100",
      "lat": 45.55285857100203,
      "lon": -122.77148700384333,
      "label": "start"
    },
    "n101": {
      "id": "n101",
      "lat": 45.56127602604877,
      "lon": -122.78508936207662,
      "label": "start"
    },
    "n102": {
      "id": "n102",
      "lat": 45.562136525223934,
      "lon": -122.7836464981902,
      "label": "trailhead: Upper Saltzman & Firelane 5"
    },
    "n103": {
      "id": "n103",
      "lat": 45.56226513230143,
      "lon": -122.78112252391291,
      "label": "unnamed side trail"
    },
    "n104": {
      "id": "n104",
      "lat": 45.56663665,
      "lon": -122.75877754612078,
      "label": "Maple Trail"
    },
    "n105": {
      "id": "n105",
      "lat": 45.566617011111106,
      "lon": -122.75350865121341,
      "label": "trailhead: Lower Saltzman Road"
    },
    "n106": {
      "id": "n106",
      "lat": 45.566305344444444,
      "lon": -122.75299271885595,
      "label": "end"
    },
    "n107": {
      "id": "n107",
      "lat": 45.56332745403106,
      "lon": -122.75679111932563,
      "label": "Maple Trail"
    },
    "n108": {
      "id": "n108",
      "lat": 45.56378345384514,
      "lon": -122.77975287691082,
      "label": "gravel road goes uphill"
    },
    "n109": {
      "id": "n109",
      "lat": 45.564099805043384,
      "lon": -122.77709841349568,
      "label": "trail runs steeply up to powerline right of way"
    },
    "n110": {
      "id": "n110",
      "lat": 45.57452043055556,
      "lon": -122.78797824476636,
      "label": "start"
    },
    "n111": {
      "id": "n111",
      "lat": 45.574390836111114,
      "lon": -122.78552704526992,
      "label": "Hardesty Trail"
    },
    "n112": {
      "id": "n112",
      "lat": 45.57399329444445,
      "lon": -122.78447441181282,
      "label": "Trillium Trail"
    },
    "n113": {
      "id": "n113",
      "lat": 45.57429721388889,
      "lon": -122.7807834347505,
      "label": "Ridge Trail"
    },
    "n114": {
      "id": "n114",
      "lat": 45.57287043611112,
      "lon": -122.77542473043091,
      "label": "Fire Lane 7a"
    },
    "n115": {
      "id": "n115",
      "lat": 45.57256640000001,
      "lon": -122.77978185856723,
      "label": "Wildwood Trail"
    },
    "n116": {
      "id": "n116",
      "lat": 45.57239607777778,
      "lon": -122.78042286157888,
      "label": "edge of road, Leif Erikson"
    },
    "n117": {
      "id": "n117",
      "lat": 45.57606674722223,
      "lon": -122.76814097731096,
      "label": "abrupt turn, trail sign to Leif Erikson"
    },
    "n118": {
      "id": "n118",
      "lat": 45.572616430555556,
      "lon": -122.7911538074653,
      "label": "edge of Skyline"
    },
    "n119": {
      "id": "n119",
      "lat": 45.573942611111114,
      "lon": -122.78980007475693,
      "label": "trailhead: Upper Springville Road"
    },
    "n120": {
      "id": "n120",
      "lat": 45.58557056388889,
      "lon": -122.77600479329637,
      "label": "end"
    },
    "n121": {
      "id": "n121",
      "lat": 45.58722056111112,
      "lon": -122.79623380894321,
      "label": "edge of road, Germantown"
    },
    "n122": {
      "id": "n122",
      "lat": 45.591482230555556,
      "lon": -122.80213515698266,
      "label": "edge parking lot"
    },
    "n123": {
      "id": "n123",
      "lat": 45.59111011388889,
      "lon": -122.79877069933647,
      "label": "Keyser Trail"
    },
    "n124": {
      "id": "n124",
      "lat": 45.59228510277778,
      "lon": -122.79644961339939,
      "label": "Keyser Trail"
    },
    "n125": {
      "id": "n125",
      "lat": 45.59502576111112,
      "lon": -122.79032867910566,
      "label": "Linnton Trail"
    },
    "n126": {
      "id": "n126",
      "lat": 45.58994213333334,
      "lon": -122.79099043641129,
      "label": "parking lot"
    },
    "n127": {
      "id": "n127",
      "lat": 45.59184297777778,
      "lon": -122.80238298014388,
      "label": "trailhead: Newton Road"
    },
    "n128": {
      "id": "n128",
      "lat": 45.59472550833333,
      "lon": -122.80296003668653,
      "label": "Wildwood access trail"
    },
    "n129": {
      "id": "n129",
      "lat": 45.61113796111111,
      "lon": -122.79712112024191,
      "label": "BPA Road"
    },
    "n130": {
      "id": "n130",
      "lat": 45.592669183333335,
      "lon": -122.81470074882732,
      "label": "start"
    },
    "n131": {
      "id": "n131",
      "lat": 45.60022092777778,
      "lon": -122.80903225966094,
      "label": "Fire Lane 12"
    },
    "n132": {
      "id": "n132",
      "lat": 45.61162173888889,
      "lon": -122.79740211755876,
      "label": "end"
    },
    "n133": {
      "id": "n133",
      "lat": 45.60417796111111,
      "lon": -122.81187826768198,
      "label": "Fire Lane 15"
    },
    "n134": {
      "id": "n134",
      "lat": 45.616238091666666,
      "lon": -122.80740766158934,
      "label": "NW Creston Road"
    },
    "n135": {
      "id": "n135",
      "lat": 45.59623254444445,
      "lon": -122.82359090629024,
      "label": "edge of Skyline"
    },
    "n136": {
      "id": "n136",
      "lat": 45.60007071388889,
      "lon": -122.81579836314091,
      "label": "Kielhorn Meadow Trail"
    },
    "n137": {
      "id": "n137",
      "lat": 45.59966885277778,
      "lon": -122.81551135476641,
      "label": "high point on Fire Lane 15"
    },
    "n138": {
      "id": "n138",
      "lat": 45.60533659722223,
      "lon": -122.80922245347482,
      "label": "BPA Road"
    },
    "n139": {
      "id": "n139",
      "lat": 45.61233573888889,
      "lon": -122.80862493634224,
      "label": "Fire Lane 13A"
    },
    "n140": {
      "id": "n140",
      "lat": 45.613879986111115,
      "lon": -122.80763302442261,
      "label": "end"
    },
    "n141": {
      "id": "n141",
      "lat": 45.61289867777778,
      "lon": -122.80595262716834,
      "label": "end"
    },
    "n142": {
      "id": "n142",
      "lat": 45.59290104722223,
      "lon": -122.78302316771068,
      "label": "end"
    },
    "n143": {
      "id": "n143",
      "lat": 45.57843078055556,
      "lon": -122.76298800587631,
      "label": "end"
    },
    "n144": {
      "id": "n144",
      "lat": 45.51290017219225,
      "lon": -122.71838960612543,
      "label": "start"
    },
    "n145": {
      "id": "n145",
      "lat": 45.52740918975059,
      "lon": -122.71502945361124,
      "label": "end"
    },
    "n146": {
      "id": "n146",
      "lat": 45.52814828480257,
      "lon": -122.71601798306827,
      "label": "Tunnel Trail"
    },
    "n147": {
      "id": "n147",
      "lat": 45.52948693956616,
      "lon": -122.7149600023038,
      "label": "NW Cumberland Road"
    },
    "n148": {
      "id": "n148",
      "lat": 45.530175931086724,
      "lon": -122.71720122082972,
      "label": "edge of parking lot"
    },
    "n149": {
      "id": "n149",
      "lat": 45.53547233935077,
      "lon": -122.71249670586587,
      "label": "under Thurman Road bridge"
    },
    "n150": {
      "id": "n150",
      "lat": 45.53583493098071,
      "lon": -122.71249920094641,
      "label": "sidewalk at circular road"
    },
    "n151": {
      "id": "n151",
      "lat": 45.532692618508676,
      "lon": -122.73168586027865,
      "label": "start"
    },
    "n152": {
      "id": "n152",
      "lat": 45.53220852790059,
      "lon": -122.72936079522285,
      "label": "Parkview Trail"
    },
    "n153": {
      "id": "n153",
      "lat": 45.53366071461406,
      "lon": -122.7186959375653,
      "label": "trailhead: Holman Lane"
    },
    "n154": {
      "id": "n154",
      "lat": 45.53632135789163,
      "lon": -122.71892190407974,
      "label": "start"
    },
    "n155": {
      "id": "n155",
      "lat": 45.533650703037964,
      "lon": -122.7327299149148,
      "label": "trailhead: NW 53rd: Birch Trail"
    },
    "n156": {
      "id": "n156",
      "lat": 45.538619268050375,
      "lon": -122.73389522399867,
      "label": "Wild Cherry Trail"
    },
    "n157": {
      "id": "n157",
      "lat": 45.53937208699998,
      "lon": -122.73390325733226,
      "label": "Keil Trail"
    },
    "n158": {
      "id": "n158",
      "lat": 45.54038072299298,
      "lon": -122.73676597419083,
      "label": "trailhead: NW 53rd: Wildwood Trail"
    },
    "n159": {
      "id": "n159",
      "lat": 45.54931614935345,
      "lon": -122.74475387073674,
      "label": "Morak Trail, near sign"
    },
    "n160": {
      "id": "n160",
      "lat": 45.5491046223476,
      "lon": -122.75179425597251,
      "label": "link trail to Wildwood"
    },
    "n161": {
      "id": "n161",
      "lat": 45.55428544026011,
      "lon": -122.75978375910562,
      "label": "Maple Link Trail"
    },
    "n162": {
      "id": "n162",
      "lat": 45.55919902299544,
      "lon": -122.7579474682934,
      "label": "Koenig Trail"
    },
    "n163": {
      "id": "n163",
      "lat": 45.55913970617513,
      "lon": -122.76052828894855,
      "label": "edge of bridge (on metal)"
    },
    "n164": {
      "id": "n164",
      "lat": 45.57031300021324,
      "lon": -122.76222204007617,
      "label": "Quarry Trail"
    },
    "n165": {
      "id": "n165",
      "lat": 45.58328505555556,
      "lon": -122.76988288669055,
      "label": "Ridge N and Ridge S"
    },
    "n166": {
      "id": "n166",
      "lat": 45.58243778055556,
      "lon": -122.76807393736003,
      "label": "end"
    },
    "n167": {
      "id": "n167",
      "lat": 45.584370883333335,
      "lon": -122.77023581886509,
      "label": "end"
    },
    "n168": {
      "id": "n168",
      "lat": 45.57493821944445,
      "lon": -122.78684282160924,
      "label": "edge of road, Springville"
    },
    "n169": {
      "id": "n169",
      "lat": 45.579693444444445,
      "lon": -122.79662746003675,
      "label": "start"
    },
    "n170": {
      "id": "n170",
      "lat": 45.58027695277778,
      "lon": -122.79554587137042,
      "label": "Waterline Trail"
    },
    "n171": {
      "id": "n171",
      "lat": 45.58061266944445,
      "lon": -122.79566201361969,
      "label": "end"
    },
    "n172": {
      "id": "n172",
      "lat": 45.58834705833333,
      "lon": -122.77882195838886,
      "label": "end"
    },
    "n173": {
      "id": "n173",
      "lat": 45.587648811111116,
      "lon": -122.7935917270821,
      "label": "start"
    },
    "n174": {
      "id": "n174",
      "lat": 45.598339736111114,
      "lon": -122.8153203794054,
      "label": "edge of meadow"
    },
    "n175": {
      "id": "n175",
      "lat": 45.597574075000004,
      "lon": -122.8152965421549,
      "label": "end"
    },
    "n176": {
      "id": "n176",
      "lat": 45.596311125,
      "lon": -122.7843921527529,
      "label": "parking area"
    }
  },
  "adjacency": {
    "n1": [
      {
        "node": "n2",
        "segment": "seg-1",
        "distance": 0.04
      }
    ],
    "n2": [
      {
        "node": "n1",
        "segment": "seg-1",
        "distance": 0.04
      },
      {
        "node": "n2",
        "segment": "seg-2",
        "distance": 0.01
      },
      {
        "node": "n2",
        "segment": "seg-2",
        "distance": 0.01
      },
      {
        "node": "n3",
        "segment": "seg-3",
        "distance": 0.16
      }
    ],
    "n3": [
      {
        "node": "n2",
        "segment": "seg-3",
        "distance": 0.16
      },
      {
        "node": "n4",
        "segment": "seg-4",
        "distance": 0.15
      },
      {
        "node": "n144",
        "segment": "seg-161",
        "distance": 0.06
      }
    ],
    "n4": [
      {
        "node": "n3",
        "segment": "seg-4",
        "distance": 0.15
      },
      {
        "node": "n5",
        "segment": "seg-5",
        "distance": 0.06
      }
    ],
    "n5": [
      {
        "node": "n4",
        "segment": "seg-5",
        "distance": 0.06
      },
      {
        "node": "n6",
        "segment": "seg-6",
        "distance": 0.03
      }
    ],
    "n6": [
      {
        "node": "n5",
        "segment": "seg-6",
        "distance": 0.03
      },
      {
        "node": "n7",
        "segment": "seg-7",
        "distance": 0.03
      }
    ],
    "n7": [
      {
        "node": "n6",
        "segment": "seg-7",
        "distance": 0.03
      },
      {
        "node": "n8",
        "segment": "seg-8",
        "distance": 0.02
      }
    ],
    "n8": [
      {
        "node": "n7",
        "segment": "seg-8",
        "distance": 0.02
      },
      {
        "node": "n9",
        "segment": "seg-9",
        "distance": 0.03
      }
    ],
    "n9": [
      {
        "node": "n8",
        "segment": "seg-9",
        "distance": 0.03
      },
      {
        "node": "n10",
        "segment": "seg-10",
        "distance": 0.18
      }
    ],
    "n10": [
      {
        "node": "n9",
        "segment": "seg-10",
        "distance": 0.18
      },
      {
        "node": "n10",
        "segment": "seg-11",
        "distance": 0.01
      },
      {
        "node": "n10",
        "segment": "seg-11",
        "distance": 0.01
      },
      {
        "node": "n11",
        "segment": "seg-12",
        "distance": 0.14
      }
    ],
    "n11": [
      {
        "node": "n10",
        "segment": "seg-12",
        "distance": 0.14
      },
      {
        "node": "n12",
        "segment": "seg-13",
        "distance": 0.48
      }
    ],
    "n12": [
      {
        "node": "n11",
        "segment": "seg-13",
        "distance": 0.48
      },
      {
        "node": "n13",
        "segment": "seg-14",
        "distance": 0.63
      }
    ],
    "n13": [
      {
        "node": "n12",
        "segment": "seg-14",
        "distance": 0.63
      },
      {
        "node": "n14",
        "segment": "seg-15",
        "distance": 0.3
      }
    ],
    "n14": [
      {
        "node": "n13",
        "segment": "seg-15",
        "distance": 0.3
      },
      {
        "node": "n15",
        "segment": "seg-16",
        "distance": 0.05
      }
    ],
    "n15": [
      {
        "node": "n14",
        "segment": "seg-16",
        "distance": 0.05
      },
      {
        "node": "n16",
        "segment": "seg-17",
        "distance": 0.13
      }
    ],
    "n16": [
      {
        "node": "n15",
        "segment": "seg-17",
        "distance": 0.13
      },
      {
        "node": "n17",
        "segment": "seg-18",
        "distance": 0.15
      }
    ],
    "n17": [
      {
        "node": "n16",
        "segment": "seg-18",
        "distance": 0.15
      },
      {
        "node": "n18",
        "segment": "seg-19",
        "distance": 0.11
      },
      {
        "node": "n17",
        "segment": "seg-162",
        "distance": 0.01
      },
      {
        "node": "n17",
        "segment": "seg-162",
        "distance": 0.01
      }
    ],
    "n18": [
      {
        "node": "n17",
        "segment": "seg-19",
        "distance": 0.11
      },
      {
        "node": "n19",
        "segment": "seg-20",
        "distance": 0.09
      }
    ],
    "n19": [
      {
        "node": "n18",
        "segment": "seg-20",
        "distance": 0.09
      },
      {
        "node": "n20",
        "segment": "seg-21",
        "distance": 0.06
      },
      {
        "node": "n19",
        "segment": "seg-163",
        "distance": 0.01
      },
      {
        "node": "n19",
        "segment": "seg-163",
        "distance": 0.01
      }
    ],
    "n20": [
      {
        "node": "n19",
        "segment": "seg-21",
        "distance": 0.06
      },
      {
        "node": "n21",
        "segment": "seg-22",
        "distance": 0.35
      }
    ],
    "n21": [
      {
        "node": "n20",
        "segment": "seg-22",
        "distance": 0.35
      },
      {
        "node": "n22",
        "segment": "seg-23",
        "distance": 0.38
      }
    ],
    "n22": [
      {
        "node": "n21",
        "segment": "seg-23",
        "distance": 0.38
      },
      {
        "node": "n23",
        "segment": "seg-24",
        "distance": 0.13
      }
    ],
    "n23": [
      {
        "node": "n22",
        "segment": "seg-24",
        "distance": 0.13
      }
    ],
    "n24": [
      {
        "node": "n25",
        "segment": "seg-25",
        "distance": 0.41
      }
    ],
    "n25": [
      {
        "node": "n24",
        "segment": "seg-25",
        "distance": 0.41
      },
      {
        "node": "n26",
        "segment": "seg-26",
        "distance": 0.09
      },
      {
        "node": "n28",
        "segment": "seg-164",
        "distance": 0.52
      },
      {
        "node": "n145",
        "segment": "seg-165",
        "distance": 0.27
      }
    ],
    "n26": [
      {
        "node": "n25",
        "segment": "seg-26",
        "distance": 0.09
      },
      {
        "node": "n27",
        "segment": "seg-27",
        "distance": 0.1
      },
      {
        "node": "n145",
        "segment": "seg-166",
        "distance": 0.28
      }
    ],
    "n27": [
      {
        "node": "n26",
        "segment": "seg-27",
        "distance": 0.1
      },
      {
        "node": "n28",
        "segment": "seg-28",
        "distance": 0.43
      },
      {
        "node": "n146",
        "segment": "seg-167",
        "distance": 0.25
      }
    ],
    "n28": [
      {
        "node": "n27",
        "segment": "seg-28",
        "distance": 0.43
      },
      {
        "node": "n28",
        "segment": "seg-29",
        "distance": 0.02
      },
      {
        "node": "n28",
        "segment": "seg-29",
        "distance": 0.02
      },
      {
        "node": "n29",
        "segment": "seg-30",
        "distance": 0.02
      },
      {
        "node": "n25",
        "segment": "seg-164",
        "distance": 0.52
      }
    ],
    "n29": [
      {
        "node": "n28",
        "segment": "seg-30",
        "distance": 0.02
      },
      {
        "node": "n30",
        "segment": "seg-31",
        "distance": 0.53
      }
    ],
    "n30": [
      {
        "node": "n29",
        "segment": "seg-31",
        "distance": 0.53
      },
      {
        "node": "n31",
        "segment": "seg-32",
        "distance": 0.44
      },
      {
        "node": "n149",
        "segment": "seg-170",
        "distance": 0.83
      }
    ],
    "n31": [
      {
        "node": "n30",
        "segment": "seg-32",
        "distance": 0.44
      },
      {
        "node": "n32",
        "segment": "seg-33",
        "distance": 0.43
      },
      {
        "node": "n152",
        "segment": "seg-173",
        "distance": 0.62
      },
      {
        "node": "n153",
        "segment": "seg-174",
        "distance": 0.1
      }
    ],
    "n32": [
      {
        "node": "n31",
        "segment": "seg-33",
        "distance": 0.43
      },
      {
        "node": "n33",
        "segment": "seg-34",
        "distance": 0.48
      },
      {
        "node": "n154",
        "segment": "seg-176",
        "distance": 0.22
      }
    ],
    "n33": [
      {
        "node": "n32",
        "segment": "seg-34",
        "distance": 0.48
      },
      {
        "node": "n34",
        "segment": "seg-35",
        "distance": 0.67
      },
      {
        "node": "n152",
        "segment": "seg-177",
        "distance": 0.41
      }
    ],
    "n34": [
      {
        "node": "n33",
        "segment": "seg-35",
        "distance": 0.67
      },
      {
        "node": "n35",
        "segment": "seg-36",
        "distance": 0.38
      },
      {
        "node": "n155",
        "segment": "seg-178",
        "distance": 0.2
      }
    ],
    "n35": [
      {
        "node": "n34",
        "segment": "seg-36",
        "distance": 0.38
      },
      {
        "node": "n36",
        "segment": "seg-37",
        "distance": 0.59
      },
      {
        "node": "n156",
        "segment": "seg-184",
        "distance": 0.28
      },
      {
        "node": "n74",
        "segment": "seg-185",
        "distance": 0.55
      }
    ],
    "n36": [
      {
        "node": "n35",
        "segment": "seg-37",
        "distance": 0.59
      },
      {
        "node": "n37",
        "segment": "seg-38",
        "distance": 0.73
      },
      {
        "node": "n157",
        "segment": "seg-181",
        "distance": 0.58
      },
      {
        "node": "n75",
        "segment": "seg-182",
        "distance": 0.34
      }
    ],
    "n37": [
      {
        "node": "n36",
        "segment": "seg-38",
        "distance": 0.73
      },
      {
        "node": "n38",
        "segment": "seg-39",
        "distance": 0.26
      }
    ],
    "n38": [
      {
        "node": "n37",
        "segment": "seg-39",
        "distance": 0.26
      },
      {
        "node": "n38",
        "segment": "seg-40",
        "distance": 0.01
      },
      {
        "node": "n38",
        "segment": "seg-40",
        "distance": 0.01
      },
      {
        "node": "n39",
        "segment": "seg-41",
        "distance": 1.2
      },
      {
        "node": "n76",
        "segment": "seg-188",
        "distance": 0.89
      }
    ],
    "n39": [
      {
        "node": "n38",
        "segment": "seg-41",
        "distance": 1.2
      },
      {
        "node": "n40",
        "segment": "seg-42",
        "distance": 0.5
      },
      {
        "node": "n159",
        "segment": "seg-187",
        "distance": 0.07
      }
    ],
    "n40": [
      {
        "node": "n39",
        "segment": "seg-42",
        "distance": 0.5
      },
      {
        "node": "n41",
        "segment": "seg-43",
        "distance": 0.64
      },
      {
        "node": "n97",
        "segment": "seg-102",
        "distance": 0.55
      },
      {
        "node": "n98",
        "segment": "seg-103",
        "distance": 0.07
      }
    ],
    "n41": [
      {
        "node": "n40",
        "segment": "seg-43",
        "distance": 0.64
      },
      {
        "node": "n42",
        "segment": "seg-44",
        "distance": 0.3
      },
      {
        "node": "n160",
        "segment": "seg-191",
        "distance": 0.04
      }
    ],
    "n42": [
      {
        "node": "n41",
        "segment": "seg-44",
        "distance": 0.3
      },
      {
        "node": "n43",
        "segment": "seg-45",
        "distance": 0.6
      },
      {
        "node": "n78",
        "segment": "seg-192",
        "distance": 0.5
      }
    ],
    "n43": [
      {
        "node": "n42",
        "segment": "seg-45",
        "distance": 0.6
      },
      {
        "node": "n44",
        "segment": "seg-46",
        "distance": 0.1
      },
      {
        "node": "n99",
        "segment": "seg-105",
        "distance": 0.57
      },
      {
        "node": "n79",
        "segment": "seg-106",
        "distance": 0.45
      }
    ],
    "n44": [
      {
        "node": "n43",
        "segment": "seg-46",
        "distance": 0.1
      },
      {
        "node": "n45",
        "segment": "seg-47",
        "distance": 0.62
      },
      {
        "node": "n161",
        "segment": "seg-193",
        "distance": 0.5
      }
    ],
    "n45": [
      {
        "node": "n44",
        "segment": "seg-47",
        "distance": 0.62
      },
      {
        "node": "n46",
        "segment": "seg-48",
        "distance": 0.19
      },
      {
        "node": "n161",
        "segment": "seg-203",
        "distance": 0.07
      }
    ],
    "n46": [
      {
        "node": "n45",
        "segment": "seg-48",
        "distance": 0.19
      },
      {
        "node": "n47",
        "segment": "seg-49",
        "distance": 0.57
      },
      {
        "node": "n100",
        "segment": "seg-107",
        "distance": 0.57
      },
      {
        "node": "n80",
        "segment": "seg-108",
        "distance": 0.3
      }
    ],
    "n47": [
      {
        "node": "n46",
        "segment": "seg-49",
        "distance": 0.57
      },
      {
        "node": "n48",
        "segment": "seg-50",
        "distance": 1.14
      },
      {
        "node": "n81",
        "segment": "seg-204",
        "distance": 0.15
      }
    ],
    "n48": [
      {
        "node": "n47",
        "segment": "seg-50",
        "distance": 1.14
      },
      {
        "node": "n48",
        "segment": "seg-51",
        "distance": 0.01
      },
      {
        "node": "n48",
        "segment": "seg-51",
        "distance": 0.01
      },
      {
        "node": "n49",
        "segment": "seg-52",
        "distance": 0.07
      }
    ],
    "n49": [
      {
        "node": "n48",
        "segment": "seg-52",
        "distance": 0.07
      },
      {
        "node": "n50",
        "segment": "seg-53",
        "distance": 0.52
      },
      {
        "node": "n84",
        "segment": "seg-207",
        "distance": 0.21
      }
    ],
    "n50": [
      {
        "node": "n49",
        "segment": "seg-53",
        "distance": 0.52
      },
      {
        "node": "n50",
        "segment": "seg-54",
        "distance": 0.01
      },
      {
        "node": "n50",
        "segment": "seg-54",
        "distance": 0.01
      },
      {
        "node": "n51",
        "segment": "seg-55",
        "distance": 0.69
      },
      {
        "node": "n103",
        "segment": "seg-112",
        "distance": 0.98
      },
      {
        "node": "n85",
        "segment": "seg-113",
        "distance": 0.52
      }
    ],
    "n51": [
      {
        "node": "n50",
        "segment": "seg-55",
        "distance": 0.69
      },
      {
        "node": "n52",
        "segment": "seg-56",
        "distance": 1.5
      },
      {
        "node": "n109",
        "segment": "seg-122",
        "distance": 0.45
      },
      {
        "node": "n87",
        "segment": "seg-123",
        "distance": 0.27
      }
    ],
    "n52": [
      {
        "node": "n51",
        "segment": "seg-56",
        "distance": 1.5
      },
      {
        "node": "n53",
        "segment": "seg-57",
        "distance": 0.35
      },
      {
        "node": "n88",
        "segment": "seg-211",
        "distance": 0.3
      }
    ],
    "n53": [
      {
        "node": "n52",
        "segment": "seg-57",
        "distance": 0.35
      },
      {
        "node": "n54",
        "segment": "seg-58",
        "distance": 0.85
      },
      {
        "node": "n112",
        "segment": "seg-212",
        "distance": 0.24
      }
    ],
    "n54": [
      {
        "node": "n53",
        "segment": "seg-58",
        "distance": 0.85
      },
      {
        "node": "n55",
        "segment": "seg-59",
        "distance": 0.53
      }
    ],
    "n55": [
      {
        "node": "n54",
        "segment": "seg-59",
        "distance": 0.53
      },
      {
        "node": "n56",
        "segment": "seg-60",
        "distance": 0.91
      },
      {
        "node": "n114",
        "segment": "seg-130",
        "distance": 0.32
      },
      {
        "node": "n117",
        "segment": "seg-131",
        "distance": 0.13
      }
    ],
    "n56": [
      {
        "node": "n55",
        "segment": "seg-60",
        "distance": 0.91
      },
      {
        "node": "n57",
        "segment": "seg-61",
        "distance": 0.77
      },
      {
        "node": "n113",
        "segment": "seg-213",
        "distance": 0.44
      },
      {
        "node": "n91",
        "segment": "seg-214",
        "distance": 0.33
      }
    ],
    "n57": [
      {
        "node": "n56",
        "segment": "seg-61",
        "distance": 0.77
      },
      {
        "node": "n58",
        "segment": "seg-62",
        "distance": 0.04
      },
      {
        "node": "n92",
        "segment": "seg-220",
        "distance": 0.26
      }
    ],
    "n58": [
      {
        "node": "n57",
        "segment": "seg-62",
        "distance": 0.04
      },
      {
        "node": "n59",
        "segment": "seg-63",
        "distance": 0.76
      },
      {
        "node": "n111",
        "segment": "seg-219",
        "distance": 0.28
      }
    ],
    "n59": [
      {
        "node": "n58",
        "segment": "seg-63",
        "distance": 0.76
      },
      {
        "node": "n59",
        "segment": "seg-64",
        "distance": 0.01
      },
      {
        "node": "n59",
        "segment": "seg-64",
        "distance": 0.01
      },
      {
        "node": "n60",
        "segment": "seg-65",
        "distance": 1.51
      },
      {
        "node": "n110",
        "segment": "seg-135",
        "distance": 0.33
      },
      {
        "node": "n93",
        "segment": "seg-136",
        "distance": 0.37
      }
    ],
    "n60": [
      {
        "node": "n59",
        "segment": "seg-65",
        "distance": 1.51
      },
      {
        "node": "n61",
        "segment": "seg-66",
        "distance": 0.56
      },
      {
        "node": "n170",
        "segment": "seg-224",
        "distance": 0.34
      },
      {
        "node": "n94",
        "segment": "seg-225",
        "distance": 0.35
      }
    ],
    "n61": [
      {
        "node": "n60",
        "segment": "seg-66",
        "distance": 0.56
      },
      {
        "node": "n62",
        "segment": "seg-67",
        "distance": 0.06
      },
      {
        "node": "n173",
        "segment": "seg-228",
        "distance": 0.03
      }
    ],
    "n62": [
      {
        "node": "n61",
        "segment": "seg-67",
        "distance": 0.06
      },
      {
        "node": "n63",
        "segment": "seg-68",
        "distance": 0.03
      },
      {
        "node": "n173",
        "segment": "seg-227",
        "distance": 0.02
      }
    ],
    "n63": [
      {
        "node": "n62",
        "segment": "seg-68",
        "distance": 0.03
      },
      {
        "node": "n64",
        "segment": "seg-69",
        "distance": 0.32
      }
    ],
    "n64": [
      {
        "node": "n63",
        "segment": "seg-69",
        "distance": 0.32
      },
      {
        "node": "n65",
        "segment": "seg-70",
        "distance": 0.42
      },
      {
        "node": "n121",
        "segment": "seg-138",
        "distance": 0.17
      }
    ],
    "n65": [
      {
        "node": "n64",
        "segment": "seg-70",
        "distance": 0.42
      },
      {
        "node": "n66",
        "segment": "seg-71",
        "distance": 0.15
      },
      {
        "node": "n122",
        "segment": "seg-139",
        "distance": 0.14
      },
      {
        "node": "n123",
        "segment": "seg-140",
        "distance": 0.1
      }
    ],
    "n66": [
      {
        "node": "n65",
        "segment": "seg-71",
        "distance": 0.15
      },
      {
        "node": "n67",
        "segment": "seg-72",
        "distance": 0.33
      },
      {
        "node": "n122",
        "segment": "seg-231",
        "distance": 0.07
      }
    ],
    "n67": [
      {
        "node": "n66",
        "segment": "seg-72",
        "distance": 0.33
      },
      {
        "node": "n68",
        "segment": "seg-73",
        "distance": 0.39
      },
      {
        "node": "n128",
        "segment": "seg-232",
        "distance": 0.14
      }
    ],
    "n68": [
      {
        "node": "n67",
        "segment": "seg-73",
        "distance": 0.39
      },
      {
        "node": "n69",
        "segment": "seg-74",
        "distance": 1.12
      },
      {
        "node": "n128",
        "segment": "seg-145",
        "distance": 0.38
      },
      {
        "node": "n129",
        "segment": "seg-146",
        "distance": 1.28
      }
    ],
    "n69": [
      {
        "node": "n68",
        "segment": "seg-74",
        "distance": 1.12
      },
      {
        "node": "n131",
        "segment": "seg-148",
        "distance": 0.26
      }
    ],
    "n70": [
      {
        "node": "n71",
        "segment": "seg-75",
        "distance": 0.87
      },
      {
        "node": "n130",
        "segment": "seg-147",
        "distance": 0.41
      }
    ],
    "n71": [
      {
        "node": "n70",
        "segment": "seg-75",
        "distance": 0.87
      },
      {
        "node": "n72",
        "segment": "seg-76",
        "distance": 1.77
      },
      {
        "node": "n137",
        "segment": "seg-154",
        "distance": 0.28
      },
      {
        "node": "n133",
        "segment": "seg-155",
        "distance": 0.38
      }
    ],
    "n72": [
      {
        "node": "n71",
        "segment": "seg-76",
        "distance": 1.77
      }
    ],
    "n73": [
      {
        "node": "n74",
        "segment": "seg-77",
        "distance": 0.26
      }
    ],
    "n74": [
      {
        "node": "n73",
        "segment": "seg-77",
        "distance": 0.26
      },
      {
        "node": "n75",
        "segment": "seg-78",
        "distance": 0.6
      },
      {
        "node": "n35",
        "segment": "seg-185",
        "distance": 0.55
      }
    ],
    "n75": [
      {
        "node": "n74",
        "segment": "seg-78",
        "distance": 0.6
      },
      {
        "node": "n76",
        "segment": "seg-79",
        "distance": 0.56
      },
      {
        "node": "n36",
        "segment": "seg-182",
        "distance": 0.34
      }
    ],
    "n76": [
      {
        "node": "n75",
        "segment": "seg-79",
        "distance": 0.56
      },
      {
        "node": "n77",
        "segment": "seg-80",
        "distance": 1.57
      },
      {
        "node": "n38",
        "segment": "seg-188",
        "distance": 0.89
      }
    ],
    "n77": [
      {
        "node": "n76",
        "segment": "seg-80",
        "distance": 1.57
      },
      {
        "node": "n78",
        "segment": "seg-81",
        "distance": 0.39
      },
      {
        "node": "n98",
        "segment": "seg-104",
        "distance": 0.44
      }
    ],
    "n78": [
      {
        "node": "n77",
        "segment": "seg-81",
        "distance": 0.39
      },
      {
        "node": "n78",
        "segment": "seg-82",
        "distance": 0.01
      },
      {
        "node": "n78",
        "segment": "seg-82",
        "distance": 0.01
      },
      {
        "node": "n79",
        "segment": "seg-83",
        "distance": 0.28
      },
      {
        "node": "n160",
        "segment": "seg-190",
        "distance": 0.28
      },
      {
        "node": "n42",
        "segment": "seg-192",
        "distance": 0.5
      }
    ],
    "n79": [
      {
        "node": "n78",
        "segment": "seg-83",
        "distance": 0.28
      },
      {
        "node": "n80",
        "segment": "seg-84",
        "distance": 0.52
      },
      {
        "node": "n43",
        "segment": "seg-106",
        "distance": 0.45
      }
    ],
    "n80": [
      {
        "node": "n79",
        "segment": "seg-84",
        "distance": 0.52
      },
      {
        "node": "n81",
        "segment": "seg-85",
        "distance": 0.33
      },
      {
        "node": "n46",
        "segment": "seg-108",
        "distance": 0.3
      },
      {
        "node": "n80",
        "segment": "seg-109",
        "distance": 0.01
      },
      {
        "node": "n80",
        "segment": "seg-109",
        "distance": 0.01
      },
      {
        "node": "n161",
        "segment": "seg-194",
        "distance": 0.33
      },
      {
        "node": "n80",
        "segment": "seg-195",
        "distance": 0.01
      },
      {
        "node": "n80",
        "segment": "seg-195",
        "distance": 0.01
      },
      {
        "node": "n80",
        "segment": "seg-196",
        "distance": 0.01
      },
      {
        "node": "n80",
        "segment": "seg-196",
        "distance": 0.01
      },
      {
        "node": "n162",
        "segment": "seg-197",
        "distance": 0.37
      }
    ],
    "n81": [
      {
        "node": "n80",
        "segment": "seg-85",
        "distance": 0.33
      },
      {
        "node": "n82",
        "segment": "seg-86",
        "distance": 0.06
      },
      {
        "node": "n47",
        "segment": "seg-204",
        "distance": 0.15
      },
      {
        "node": "n82",
        "segment": "seg-205",
        "distance": 0.06
      }
    ],
    "n82": [
      {
        "node": "n81",
        "segment": "seg-86",
        "distance": 0.06
      },
      {
        "node": "n83",
        "segment": "seg-87",
        "distance": 0.52
      },
      {
        "node": "n81",
        "segment": "seg-205",
        "distance": 0.06
      },
      {
        "node": "n162",
        "segment": "seg-206",
        "distance": 0.13
      }
    ],
    "n83": [
      {
        "node": "n82",
        "segment": "seg-87",
        "distance": 0.52
      },
      {
        "node": "n84",
        "segment": "seg-88",
        "distance": 0.35
      },
      {
        "node": "n107",
        "segment": "seg-118",
        "distance": 0.2
      }
    ],
    "n84": [
      {
        "node": "n83",
        "segment": "seg-88",
        "distance": 0.35
      },
      {
        "node": "n85",
        "segment": "seg-89",
        "distance": 0.74
      },
      {
        "node": "n49",
        "segment": "seg-207",
        "distance": 0.21
      }
    ],
    "n85": [
      {
        "node": "n84",
        "segment": "seg-89",
        "distance": 0.74
      },
      {
        "node": "n86",
        "segment": "seg-90",
        "distance": 0.24
      },
      {
        "node": "n50",
        "segment": "seg-113",
        "distance": 0.52
      },
      {
        "node": "n104",
        "segment": "seg-114",
        "distance": 0.81
      },
      {
        "node": "n85",
        "segment": "seg-208",
        "distance": 0.01
      },
      {
        "node": "n85",
        "segment": "seg-208",
        "distance": 0.01
      },
      {
        "node": "n164",
        "segment": "seg-209",
        "distance": 0.18
      }
    ],
    "n86": [
      {
        "node": "n85",
        "segment": "seg-90",
        "distance": 0.24
      },
      {
        "node": "n87",
        "segment": "seg-91",
        "distance": 0.16
      },
      {
        "node": "n164",
        "segment": "seg-202",
        "distance": 0.35
      }
    ],
    "n87": [
      {
        "node": "n86",
        "segment": "seg-91",
        "distance": 0.16
      },
      {
        "node": "n88",
        "segment": "seg-92",
        "distance": 0.54
      },
      {
        "node": "n51",
        "segment": "seg-123",
        "distance": 0.27
      }
    ],
    "n88": [
      {
        "node": "n87",
        "segment": "seg-92",
        "distance": 0.54
      },
      {
        "node": "n89",
        "segment": "seg-93",
        "distance": 0.5
      },
      {
        "node": "n52",
        "segment": "seg-211",
        "distance": 0.3
      }
    ],
    "n89": [
      {
        "node": "n88",
        "segment": "seg-93",
        "distance": 0.5
      },
      {
        "node": "n90",
        "segment": "seg-94",
        "distance": 0.43
      }
    ],
    "n90": [
      {
        "node": "n89",
        "segment": "seg-94",
        "distance": 0.43
      },
      {
        "node": "n91",
        "segment": "seg-95",
        "distance": 0.42
      },
      {
        "node": "n117",
        "segment": "seg-132",
        "distance": 0.11
      }
    ],
    "n91": [
      {
        "node": "n90",
        "segment": "seg-95",
        "distance": 0.42
      },
      {
        "node": "n91",
        "segment": "seg-96",
        "distance": 0.02
      },
      {
        "node": "n91",
        "segment": "seg-96",
        "distance": 0.02
      },
      {
        "node": "n92",
        "segment": "seg-97",
        "distance": 0.55
      },
      {
        "node": "n56",
        "segment": "seg-214",
        "distance": 0.33
      },
      {
        "node": "n91",
        "segment": "seg-215",
        "distance": 0.02
      },
      {
        "node": "n91",
        "segment": "seg-215",
        "distance": 0.02
      },
      {
        "node": "n165",
        "segment": "seg-216",
        "distance": 0.47
      }
    ],
    "n92": [
      {
        "node": "n91",
        "segment": "seg-97",
        "distance": 0.55
      },
      {
        "node": "n93",
        "segment": "seg-98",
        "distance": 0.36
      },
      {
        "node": "n57",
        "segment": "seg-220",
        "distance": 0.26
      }
    ],
    "n93": [
      {
        "node": "n92",
        "segment": "seg-98",
        "distance": 0.36
      },
      {
        "node": "n94",
        "segment": "seg-99",
        "distance": 0.81
      },
      {
        "node": "n59",
        "segment": "seg-136",
        "distance": 0.37
      },
      {
        "node": "n120",
        "segment": "seg-137",
        "distance": 0.44
      }
    ],
    "n94": [
      {
        "node": "n93",
        "segment": "seg-99",
        "distance": 0.81
      },
      {
        "node": "n95",
        "segment": "seg-100",
        "distance": 1.06
      },
      {
        "node": "n60",
        "segment": "seg-225",
        "distance": 0.35
      },
      {
        "node": "n172",
        "segment": "seg-226",
        "distance": 0.72
      }
    ],
    "n95": [
      {
        "node": "n94",
        "segment": "seg-100",
        "distance": 1.06
      },
      {
        "node": "n142",
        "segment": "seg-159",
        "distance": 0.63
      },
      {
        "node": "n173",
        "segment": "seg-229",
        "distance": 0.27
      }
    ],
    "n96": [
      {
        "node": "n97",
        "segment": "seg-101",
        "distance": 0.08
      }
    ],
    "n97": [
      {
        "node": "n96",
        "segment": "seg-101",
        "distance": 0.08
      },
      {
        "node": "n40",
        "segment": "seg-102",
        "distance": 0.55
      }
    ],
    "n98": [
      {
        "node": "n40",
        "segment": "seg-103",
        "distance": 0.07
      },
      {
        "node": "n77",
        "segment": "seg-104",
        "distance": 0.44
      },
      {
        "node": "n160",
        "segment": "seg-189",
        "distance": 0.63
      }
    ],
    "n99": [
      {
        "node": "n43",
        "segment": "seg-105",
        "distance": 0.57
      }
    ],
    "n100": [
      {
        "node": "n46",
        "segment": "seg-107",
        "distance": 0.57
      }
    ],
    "n101": [
      {
        "node": "n102",
        "segment": "seg-110",
        "distance": 0.1
      }
    ],
    "n102": [
      {
        "node": "n101",
        "segment": "seg-110",
        "distance": 0.1
      },
      {
        "node": "n103",
        "segment": "seg-111",
        "distance": 0.11
      },
      {
        "node": "n108",
        "segment": "seg-120",
        "distance": 0.24
      }
    ],
    "n103": [
      {
        "node": "n102",
        "segment": "seg-111",
        "distance": 0.11
      },
      {
        "node": "n50",
        "segment": "seg-112",
        "distance": 0.98
      }
    ],
    "n104": [
      {
        "node": "n85",
        "segment": "seg-114",
        "distance": 0.81
      },
      {
        "node": "n105",
        "segment": "seg-115",
        "distance": 0.45
      },
      {
        "node": "n107",
        "segment": "seg-200",
        "distance": 0.47
      },
      {
        "node": "n164",
        "segment": "seg-201",
        "distance": 0.82
      }
    ],
    "n105": [
      {
        "node": "n104",
        "segment": "seg-115",
        "distance": 0.45
      },
      {
        "node": "n105",
        "segment": "seg-116",
        "distance": 0.02
      },
      {
        "node": "n105",
        "segment": "seg-116",
        "distance": 0.02
      },
      {
        "node": "n106",
        "segment": "seg-117",
        "distance": 0.02
      },
      {
        "node": "n107",
        "segment": "seg-119",
        "distance": 0.35
      }
    ],
    "n106": [
      {
        "node": "n105",
        "segment": "seg-117",
        "distance": 0.02
      }
    ],
    "n107": [
      {
        "node": "n83",
        "segment": "seg-118",
        "distance": 0.2
      },
      {
        "node": "n105",
        "segment": "seg-119",
        "distance": 0.35
      },
      {
        "node": "n163",
        "segment": "seg-199",
        "distance": 0.45
      },
      {
        "node": "n104",
        "segment": "seg-200",
        "distance": 0.47
      }
    ],
    "n108": [
      {
        "node": "n102",
        "segment": "seg-120",
        "distance": 0.24
      },
      {
        "node": "n109",
        "segment": "seg-121",
        "distance": 0.15
      }
    ],
    "n109": [
      {
        "node": "n108",
        "segment": "seg-121",
        "distance": 0.15
      },
      {
        "node": "n51",
        "segment": "seg-122",
        "distance": 0.45
      }
    ],
    "n110": [
      {
        "node": "n111",
        "segment": "seg-124",
        "distance": 0.12
      },
      {
        "node": "n119",
        "segment": "seg-134",
        "distance": 0.1
      },
      {
        "node": "n59",
        "segment": "seg-135",
        "distance": 0.33
      }
    ],
    "n111": [
      {
        "node": "n110",
        "segment": "seg-124",
        "distance": 0.12
      },
      {
        "node": "n112",
        "segment": "seg-125",
        "distance": 0.06
      },
      {
        "node": "n58",
        "segment": "seg-219",
        "distance": 0.28
      },
      {
        "node": "n168",
        "segment": "seg-221",
        "distance": 0.08
      }
    ],
    "n112": [
      {
        "node": "n111",
        "segment": "seg-125",
        "distance": 0.06
      },
      {
        "node": "n113",
        "segment": "seg-126",
        "distance": 0.18
      },
      {
        "node": "n53",
        "segment": "seg-212",
        "distance": 0.24
      }
    ],
    "n113": [
      {
        "node": "n112",
        "segment": "seg-126",
        "distance": 0.18
      },
      {
        "node": "n114",
        "segment": "seg-127",
        "distance": 0.28
      },
      {
        "node": "n56",
        "segment": "seg-213",
        "distance": 0.44
      }
    ],
    "n114": [
      {
        "node": "n113",
        "segment": "seg-127",
        "distance": 0.28
      },
      {
        "node": "n115",
        "segment": "seg-128",
        "distance": 0.48
      },
      {
        "node": "n55",
        "segment": "seg-130",
        "distance": 0.32
      }
    ],
    "n115": [
      {
        "node": "n114",
        "segment": "seg-128",
        "distance": 0.48
      },
      {
        "node": "n116",
        "segment": "seg-129",
        "distance": 0.16
      }
    ],
    "n116": [
      {
        "node": "n115",
        "segment": "seg-129",
        "distance": 0.16
      }
    ],
    "n117": [
      {
        "node": "n55",
        "segment": "seg-131",
        "distance": 0.13
      },
      {
        "node": "n90",
        "segment": "seg-132",
        "distance": 0.11
      },
      {
        "node": "n143",
        "segment": "seg-160",
        "distance": 0.7
      }
    ],
    "n118": [
      {
        "node": "n119",
        "segment": "seg-133",
        "distance": 0.11
      }
    ],
    "n119": [
      {
        "node": "n118",
        "segment": "seg-133",
        "distance": 0.11
      },
      {
        "node": "n110",
        "segment": "seg-134",
        "distance": 0.1
      }
    ],
    "n120": [
      {
        "node": "n93",
        "segment": "seg-137",
        "distance": 0.44
      }
    ],
    "n121": [
      {
        "node": "n64",
        "segment": "seg-138",
        "distance": 0.17
      }
    ],
    "n122": [
      {
        "node": "n65",
        "segment": "seg-139",
        "distance": 0.14
      },
      {
        "node": "n66",
        "segment": "seg-231",
        "distance": 0.07
      }
    ],
    "n123": [
      {
        "node": "n65",
        "segment": "seg-140",
        "distance": 0.1
      },
      {
        "node": "n124",
        "segment": "seg-141",
        "distance": 0.16
      },
      {
        "node": "n124",
        "segment": "seg-230",
        "distance": 0.25
      }
    ],
    "n124": [
      {
        "node": "n123",
        "segment": "seg-141",
        "distance": 0.16
      },
      {
        "node": "n125",
        "segment": "seg-142",
        "distance": 0.36
      },
      {
        "node": "n123",
        "segment": "seg-230",
        "distance": 0.25
      }
    ],
    "n125": [
      {
        "node": "n124",
        "segment": "seg-142",
        "distance": 0.36
      },
      {
        "node": "n126",
        "segment": "seg-143",
        "distance": 0.62
      },
      {
        "node": "n176",
        "segment": "seg-236",
        "distance": 0.52
      }
    ],
    "n126": [
      {
        "node": "n125",
        "segment": "seg-143",
        "distance": 0.62
      }
    ],
    "n127": [
      {
        "node": "n128",
        "segment": "seg-144",
        "distance": 0.2
      }
    ],
    "n128": [
      {
        "node": "n127",
        "segment": "seg-144",
        "distance": 0.2
      },
      {
        "node": "n68",
        "segment": "seg-145",
        "distance": 0.38
      },
      {
        "node": "n67",
        "segment": "seg-232",
        "distance": 0.14
      }
    ],
    "n129": [
      {
        "node": "n68",
        "segment": "seg-146",
        "distance": 1.28
      }
    ],
    "n130": [
      {
        "node": "n70",
        "segment": "seg-147",
        "distance": 0.41
      }
    ],
    "n131": [
      {
        "node": "n69",
        "segment": "seg-148",
        "distance": 0.26
      },
      {
        "node": "n132",
        "segment": "seg-149",
        "distance": 1.3
      },
      {
        "node": "n133",
        "segment": "seg-150",
        "distance": 0.51
      }
    ],
    "n132": [
      {
        "node": "n131",
        "segment": "seg-149",
        "distance": 1.3
      }
    ],
    "n133": [
      {
        "node": "n131",
        "segment": "seg-150",
        "distance": 0.51
      },
      {
        "node": "n134",
        "segment": "seg-151",
        "distance": 1
      },
      {
        "node": "n71",
        "segment": "seg-155",
        "distance": 0.38
      }
    ],
    "n134": [
      {
        "node": "n133",
        "segment": "seg-151",
        "distance": 1
      }
    ],
    "n135": [
      {
        "node": "n136",
        "segment": "seg-152",
        "distance": 0.65
      }
    ],
    "n136": [
      {
        "node": "n135",
        "segment": "seg-152",
        "distance": 0.65
      },
      {
        "node": "n137",
        "segment": "seg-153",
        "distance": 0.03
      },
      {
        "node": "n174",
        "segment": "seg-233",
        "distance": 0.14
      }
    ],
    "n137": [
      {
        "node": "n136",
        "segment": "seg-153",
        "distance": 0.03
      },
      {
        "node": "n71",
        "segment": "seg-154",
        "distance": 0.28
      }
    ],
    "n138": [
      {
        "node": "n139",
        "segment": "seg-156",
        "distance": 0.51
      }
    ],
    "n139": [
      {
        "node": "n138",
        "segment": "seg-156",
        "distance": 0.51
      },
      {
        "node": "n140",
        "segment": "seg-157",
        "distance": 0.12
      },
      {
        "node": "n141",
        "segment": "seg-158",
        "distance": 0.19
      }
    ],
    "n140": [
      {
        "node": "n139",
        "segment": "seg-157",
        "distance": 0.12
      }
    ],
    "n141": [
      {
        "node": "n139",
        "segment": "seg-158",
        "distance": 0.19
      }
    ],
    "n142": [
      {
        "node": "n95",
        "segment": "seg-159",
        "distance": 0.63
      }
    ],
    "n143": [
      {
        "node": "n117",
        "segment": "seg-160",
        "distance": 0.7
      }
    ],
    "n144": [
      {
        "node": "n3",
        "segment": "seg-161",
        "distance": 0.06
      }
    ],
    "n145": [
      {
        "node": "n25",
        "segment": "seg-165",
        "distance": 0.27
      },
      {
        "node": "n26",
        "segment": "seg-166",
        "distance": 0.28
      }
    ],
    "n146": [
      {
        "node": "n27",
        "segment": "seg-167",
        "distance": 0.25
      },
      {
        "node": "n147",
        "segment": "seg-168",
        "distance": 0.16
      },
      {
        "node": "n148",
        "segment": "seg-169",
        "distance": 0.16
      }
    ],
    "n147": [
      {
        "node": "n146",
        "segment": "seg-168",
        "distance": 0.16
      }
    ],
    "n148": [
      {
        "node": "n146",
        "segment": "seg-169",
        "distance": 0.16
      }
    ],
    "n149": [
      {
        "node": "n30",
        "segment": "seg-170",
        "distance": 0.83
      },
      {
        "node": "n150",
        "segment": "seg-171",
        "distance": 0.02
      }
    ],
    "n150": [
      {
        "node": "n149",
        "segment": "seg-171",
        "distance": 0.02
      }
    ],
    "n151": [
      {
        "node": "n152",
        "segment": "seg-172",
        "distance": 0.13
      }
    ],
    "n152": [
      {
        "node": "n151",
        "segment": "seg-172",
        "distance": 0.13
      },
      {
        "node": "n31",
        "segment": "seg-173",
        "distance": 0.62
      },
      {
        "node": "n33",
        "segment": "seg-177",
        "distance": 0.41
      }
    ],
    "n153": [
      {
        "node": "n31",
        "segment": "seg-174",
        "distance": 0.1
      },
      {
        "node": "n153",
        "segment": "seg-175",
        "distance": 0.01
      },
      {
        "node": "n153",
        "segment": "seg-175",
        "distance": 0.01
      }
    ],
    "n154": [
      {
        "node": "n32",
        "segment": "seg-176",
        "distance": 0.22
      }
    ],
    "n155": [
      {
        "node": "n34",
        "segment": "seg-178",
        "distance": 0.2
      }
    ],
    "n156": [
      {
        "node": "n156",
        "segment": "seg-179",
        "distance": 0.01
      },
      {
        "node": "n156",
        "segment": "seg-179",
        "distance": 0.01
      },
      {
        "node": "n157",
        "segment": "seg-180",
        "distance": 0.04
      },
      {
        "node": "n156",
        "segment": "seg-183",
        "distance": 0.02
      },
      {
        "node": "n156",
        "segment": "seg-183",
        "distance": 0.02
      },
      {
        "node": "n35",
        "segment": "seg-184",
        "distance": 0.28
      }
    ],
    "n157": [
      {
        "node": "n156",
        "segment": "seg-180",
        "distance": 0.04
      },
      {
        "node": "n36",
        "segment": "seg-181",
        "distance": 0.58
      },
      {
        "node": "n158",
        "segment": "seg-186",
        "distance": 0.16
      }
    ],
    "n158": [
      {
        "node": "n157",
        "segment": "seg-186",
        "distance": 0.16
      }
    ],
    "n159": [
      {
        "node": "n39",
        "segment": "seg-187",
        "distance": 0.07
      }
    ],
    "n160": [
      {
        "node": "n98",
        "segment": "seg-189",
        "distance": 0.63
      },
      {
        "node": "n78",
        "segment": "seg-190",
        "distance": 0.28
      },
      {
        "node": "n41",
        "segment": "seg-191",
        "distance": 0.04
      }
    ],
    "n161": [
      {
        "node": "n44",
        "segment": "seg-193",
        "distance": 0.5
      },
      {
        "node": "n80",
        "segment": "seg-194",
        "distance": 0.33
      },
      {
        "node": "n45",
        "segment": "seg-203",
        "distance": 0.07
      }
    ],
    "n162": [
      {
        "node": "n80",
        "segment": "seg-197",
        "distance": 0.37
      },
      {
        "node": "n163",
        "segment": "seg-198",
        "distance": 0.13
      },
      {
        "node": "n82",
        "segment": "seg-206",
        "distance": 0.13
      }
    ],
    "n163": [
      {
        "node": "n162",
        "segment": "seg-198",
        "distance": 0.13
      },
      {
        "node": "n107",
        "segment": "seg-199",
        "distance": 0.45
      }
    ],
    "n164": [
      {
        "node": "n104",
        "segment": "seg-201",
        "distance": 0.82
      },
      {
        "node": "n86",
        "segment": "seg-202",
        "distance": 0.35
      },
      {
        "node": "n85",
        "segment": "seg-209",
        "distance": 0.18
      },
      {
        "node": "n164",
        "segment": "seg-210",
        "distance": 0.01
      },
      {
        "node": "n164",
        "segment": "seg-210",
        "distance": 0.01
      }
    ],
    "n165": [
      {
        "node": "n91",
        "segment": "seg-216",
        "distance": 0.47
      },
      {
        "node": "n166",
        "segment": "seg-217",
        "distance": 0.12
      },
      {
        "node": "n167",
        "segment": "seg-218",
        "distance": 0.15
      }
    ],
    "n166": [
      {
        "node": "n165",
        "segment": "seg-217",
        "distance": 0.12
      }
    ],
    "n167": [
      {
        "node": "n165",
        "segment": "seg-218",
        "distance": 0.15
      }
    ],
    "n168": [
      {
        "node": "n111",
        "segment": "seg-221",
        "distance": 0.08
      }
    ],
    "n169": [
      {
        "node": "n170",
        "segment": "seg-222",
        "distance": 0.07
      }
    ],
    "n170": [
      {
        "node": "n169",
        "segment": "seg-222",
        "distance": 0.07
      },
      {
        "node": "n171",
        "segment": "seg-223",
        "distance": 0.02
      },
      {
        "node": "n60",
        "segment": "seg-224",
        "distance": 0.34
      }
    ],
    "n171": [
      {
        "node": "n170",
        "segment": "seg-223",
        "distance": 0.02
      }
    ],
    "n172": [
      {
        "node": "n94",
        "segment": "seg-226",
        "distance": 0.72
      }
    ],
    "n173": [
      {
        "node": "n62",
        "segment": "seg-227",
        "distance": 0.02
      },
      {
        "node": "n61",
        "segment": "seg-228",
        "distance": 0.03
      },
      {
        "node": "n95",
        "segment": "seg-229",
        "distance": 0.27
      }
    ],
    "n174": [
      {
        "node": "n136",
        "segment": "seg-233",
        "distance": 0.14
      },
      {
        "node": "n174",
        "segment": "seg-234",
        "distance": 0.02
      },
      {
        "node": "n174",
        "segment": "seg-234",
        "distance": 0.02
      },
      {
        "node": "n175",
        "segment": "seg-235",
        "distance": 0.04
      }
    ],
    "n175": [
      {
        "node": "n174",
        "segment": "seg-235",
        "distance": 0.04
      }
    ],
    "n176": [
      {
        "node": "n125",
        "segment": "seg-236",
        "distance": 0.52
      }
    ]
  }
}